city,lat,lon,population,quakes_200km
Sydney,-33.87,151.21,5638830,196
Melbourne,-37.81,144.96,5435590,272
Brisbane,-27.47,153.03,2833524,10
Perth,-31.95,115.86,2452765,397
Adelaide,-34.93,138.60,1491015,141
Canberra,-35.28,149.13,484630,133
Hobart,-42.88,147.33,255250,32
Darwin,-12.46,130.84,159284,12
